City,Country,Latitude,Longitude,Temperature,Humidity,Wind,Cloudiness,Datetime
albany,US,42.6,-73.97,39.79,33,24.16,40,1587069002
yar-sale,RU,66.83,70.83,16.97,98,10.83,97,1587069015
ushuaia,AR,-54.8,-68.3,57.2,58,4.7,99,1587069008
gardabani,GE,41.46,45.09,46.4,70,34.45,82,1587069121
esperance,AU,-33.87,121.9,51.8,87,6.93,0,1587069048
olavarria,AR,-36.89,-60.32,68.0,48,1.99,0,1587069063
bambous virieux,MU,-20.34,57.76,76.51,69,18.34,40,1587069033
kahului,US,20.89,-156.47,75.43,57,20.8,20,1587069036
mecca,SA,21.43,39.83,70.16,43,2.53,0,1587068964
sao miguel do araguaia,BR,-13.28,-50.16,73.85,86,2.84,98,1587069122
littleton,US,39.61,-105.02,26.71,86,12.75,90,1587069111
aklavik,CA,68.22,-135.01,35.2,80,17.22,90,1587069066
cidreira,BR,-30.18,-50.21,67.93,71,12.97,5,1587069069
castro,BR,-24.79,-50.01,56.7,42,1.36,0,1587068885
mingaora,PK,34.78,72.36,62.11,35,6.93,100,1587069119
rikitea,PF,-23.12,-134.97,76.37,76,12.3,34,1587069013
port alfred,ZA,-33.59,26.89,60.01,89,3.0,0,1587069014
hasaki,JP,35.73,140.83,46.4,61,6.93,75,1587069069
avarua,CK,-21.21,-159.78,80.6,65,4.7,84,1587069004
busselton,AU,-33.65,115.33,51.91,56,9.19,17,1587069011
rosetta,EG,31.4,30.42,62.6,77,13.87,40,1587069124
saint george,US,37.1,-113.58,68.23,21,4.7,1,1587068949
carnarvon,AU,-24.87,113.63,75.2,73,9.17,29,1587069015
saskylakh,RU,71.92,114.08,-12.35,89,0.76,0,1587069084
manavalakurichi,IN,8.13,77.3,78.8,94,2.17,75,1587069124
ilulissat,GL,69.22,-51.1,35.6,64,3.36,20,1587069110
maloy,NO,61.94,5.11,37.04,69,12.75,40,1587069125
monte patria,CL,-30.69,-70.95,79.99,26,7.25,1,1587069125
aksu,CN,41.12,80.26,56.66,41,15.3,99,1587069110
jamestown,US,42.1,-79.24,35.02,71,17.22,90,1587069000
uttiramerur,IN,12.6,79.77,84.2,79,6.08,20,1587069125
lebu,CL,-37.62,-73.65,63.52,67,10.69,11,1587069011
morant bay,JM,17.88,-76.41,85.53,70,17.22,20,1587069126
yellowknife,CA,62.46,-114.35,30.09,68,10.29,75,1587069005
tuktoyaktuk,CA,69.45,-133.04,21.2,85,16.11,90,1587069002
upernavik,GL,72.79,-56.15,27.82,91,10.65,100,1587068993
ulladulla,AU,-35.35,150.47,53.58,100,4.7,55,1587069071
laguna de perlas,NI,12.34,-83.67,87.8,66,4.7,20,1587069127
vila do maio,CV,15.13,-23.22,71.24,77,14.43,57,1587069127
uyskoye,RU,54.38,60.0,44.83,69,8.5,100,1587069127
svobodnyy,RU,51.4,128.13,40.15,60,4.21,1,1587069127
ankang,CN,32.68,109.02,58.5,54,5.21,100,1587069128
medicine hat,CA,50.05,-110.67,44.98,36,10.29,75,1587069016
mataura,NZ,-46.19,168.86,44.01,95,4.0,100,1587069005
coahuayana,MX,18.73,-103.68,87.8,29,11.41,5,1587069128
hermanus,ZA,-34.42,19.23,61.11,92,1.21,100,1587069014
fortuna,US,40.6,-124.16,57.54,87,10.29,20,1587069077
batagay-alyta,RU,67.8,130.41,-6.38,81,10.33,100,1587069128
obihiro,JP,42.92,143.2,34.21,83,0.89,0,1587069129
port elizabeth,ZA,-33.92,25.57,59.0,82,3.36,0,1587068879
zhezkazgan,KZ,47.8,67.71,47.21,45,9.82,0,1587069094
puerto ayora,EC,-0.74,-90.35,82.72,83,14.99,75,1587069033
bluff,NZ,-46.6,168.33,44.01,95,5.01,100,1587069129
nador,MA,35.17,-2.93,61.77,88,3.36,40,1587069130
vila franca do campo,PT,37.72,-25.43,60.8,72,8.05,20,1587069089
ipixuna,BR,-1.76,-48.8,84.2,70,6.93,20,1587069130
butaritari,KI,3.07,172.79,83.71,76,12.26,100,1587069010
arraial do cabo,BR,-22.97,-42.03,78.06,78,4.7,40,1587069026
khatanga,RU,71.97,102.5,-0.49,88,11.36,0,1587069044
bredasdorp,ZA,-34.53,20.04,60.39,82,3.36,100,1587068999
dedza,MW,-14.38,34.33,59.36,63,0.72,2,1587069131
hobart,AU,-42.88,147.33,44.35,61,16.11,20,1587068827
gat,IL,31.61,34.76,59.77,77,3.36,20,1587069131
soto la marina,MX,23.77,-98.22,78.28,71,9.44,100,1587069131
lagoa,PT,39.05,-27.98,59.31,81,16.93,12,1587069050
vaini,TO,-21.2,-175.2,77.0,83,4.7,75,1587069010
pedra branca,BR,-5.45,-39.72,73.8,82,3.02,31,1587069132
atuona,PF,-9.8,-139.03,82.72,72,12.77,40,1587069039
barrow,US,71.29,-156.79,17.6,85,11.41,90,1587069001
oromocto,CA,45.84,-66.48,40.8,23,11.41,75,1587069132
coquimbo,CL,-29.95,-71.34,66.2,63,12.75,17,1587069030
bonaventure,CA,48.05,-65.49,36.45,29,13.87,20,1587069133
qasigiannguit,GL,68.82,-51.19,35.6,64,3.36,20,1587069133
ayr,GB,55.46,-4.63,48.04,66,12.75,20,1587069133
karratha,AU,-20.74,116.85,81.68,73,10.6,91,1587069133
hithadhoo,MV,-0.6,73.08,84.99,69,6.35,95,1587069025
mae sai,TH,20.43,99.88,75.09,88,0.16,85,1587069133
te anau,NZ,-45.42,167.72,49.78,79,2.8,98,1587069071
nikolskoye,RU,59.7,30.79,35.8,74,11.18,20,1587069026
verkhnyaya inta,RU,65.98,60.31,32.36,94,4.45,100,1587069134
sao filipe,CV,14.9,-24.5,73.11,71,14.5,78,1587069041
kruisfontein,ZA,-34.0,24.73,56.84,61,5.64,4,1587069022
new norfolk,AU,-42.78,147.06,43.79,61,16.11,20,1587069016
hilo,US,19.73,-155.09,70.65,65,4.7,20,1587069029
saint-philippe,RE,-21.36,55.77,68.4,61,18.34,27,1587069135
victor harbor,AU,-35.57,138.62,55.72,59,13.87,75,1587069135
pollachi,IN,10.67,77.02,76.15,68,5.1,77,1587069135
kapaa,US,22.08,-159.32,78.46,69,11.41,20,1587068761
tommot,RU,58.96,126.29,10.87,90,3.67,46,1587069136
kenai,US,60.55,-151.26,40.06,100,8.05,90,1587069136
coronado,US,32.69,-117.18,71.78,72,8.05,20,1587068893
grand-santi,GF,4.25,-54.38,84.29,63,1.7,98,1587069136
jos,NG,9.92,8.9,76.35,13,1.07,0,1587068886
georgetown,MY,5.41,100.34,81.16,94,3.36,20,1587069061
shaowu,CN,27.34,117.48,62.76,67,1.25,0,1587069137
arinos,BR,-15.92,-46.11,72.9,76,3.47,83,1587069137
hamilton,US,39.18,-84.53,49.5,37,12.75,90,1587069030
lamu,KE,-2.27,40.9,81.91,84,8.75,100,1587069055
camacha,PT,33.08,-16.33,63.12,77,10.29,20,1587069117
perbaungan,ID,3.57,98.96,78.8,88,5.82,40,1587069138
victoria,HK,22.29,114.16,70.86,83,11.41,40,1587069003
constitucion,CL,-35.33,-72.42,63.55,62,6.55,62,1587069073
djibo,BF,14.1,-1.63,90.64,9,11.12,0,1587069138
pouebo,NC,-20.4,164.57,76.87,77,9.24,15,1587069138
chicama,PE,-7.84,-79.15,73.4,78,10.29,0,1587069138
ponta do sol,PT,32.67,-17.1,59.45,59,13.87,20,1587069006
punta arenas,CL,-53.15,-70.92,49.77,87,9.17,90,1587069031
pevek,RU,69.7,170.31,12.38,95,2.19,97,1587068820
tautira,PF,-17.73,-149.15,87.8,66,8.05,7,1587069139
saint-georges,GD,12.06,-61.75,82.4,74,17.22,20,1587069120
hirado,JP,33.36,129.55,55.81,76,3.0,100,1587069079
lompoc,US,34.64,-120.46,62.55,72,14.99,1,1587069007
tura,IN,25.52,90.22,67.44,68,2.19,96,1587068880
atar,MR,20.52,-13.05,87.48,12,8.21,98,1587069080
sobolevo,RU,54.43,31.9,36.12,77,17.52,59,1587069140
namibe,AO,-15.2,12.15,75.04,62,6.98,0,1587069067
kommunisticheskiy,RU,61.68,64.48,44.35,84,11.03,100,1587069141
vilhena,BR,-12.74,-60.15,82.4,65,8.05,75,1587069141
salekhard,RU,66.53,66.6,28.31,98,14.56,100,1587069141
portland,US,45.52,-122.68,66.09,20,19.46,1,1587068723
souillac,MU,-20.52,57.52,76.53,69,18.34,40,1587068939
cherskiy,RU,68.75,161.3,5.38,92,0.78,43,1587069001
sitka,US,57.05,-135.33,44.31,93,3.36,90,1587068996
mitsamiouli,KM,-11.38,43.28,83.73,73,8.43,100,1587069142
san patricio,MX,19.22,-104.7,78.8,69,11.41,5,1587069021
willowmore,ZA,-33.29,23.49,55.09,46,5.73,1,1587069033
dickinson,US,29.46,-95.05,73.63,53,13.87,40,1587069142
comodoro rivadavia,AR,-45.87,-67.5,75.2,47,18.34,93,1587068926
northam,GB,51.03,-4.22,53.71,87,5.82,55,1587069142
opuwo,NA,-18.06,13.84,73.42,22,3.2,22,1587069065
mahebourg,MU,-20.41,57.7,76.6,69,18.34,40,1587068998
zaysan,KZ,47.47,84.87,42.39,46,5.48,31,1587069143
mandalgovi,MN,45.76,106.27,36.7,39,2.48,0,1587069143
tibati,CM,6.47,12.63,69.06,69,3.36,99,1587069143
ribeira grande,PT,38.52,-28.7,60.8,67,4.7,40,1587069143
ahipara,NZ,-35.17,173.17,66.49,84,21.03,100,1587069076
kununurra,AU,-15.77,128.73,71.6,94,0.78,100,1587069144
chumikan,RU,54.72,135.31,36.19,81,2.42,16,1587069144
asau,RO,46.43,26.4,57.2,59,3.36,10,1587069071
sazonovo,RU,59.09,35.23,32.43,88,8.84,63,1587069144
qaanaaq,GL,77.48,-69.36,15.87,83,0.98,100,1587069002
anori,BR,-3.77,-61.64,81.32,87,1.83,100,1587069144
paamiut,GL,61.99,-49.67,32.4,91,18.25,95,1587069057
vardo,NO,70.37,31.11,34.7,86,18.34,75,1587069063
tasiilaq,GL,65.61,-37.64,30.2,92,24.16,100,1587069036
sioux lookout,CA,50.1,-91.92,32.32,72,9.17,75,1587069145
pulaski,US,34.77,-92.3,70.21,28,13.87,20,1587069145
acapulco,MX,16.86,-99.89,82.4,78,11.41,5,1587069097
peniche,PT,39.36,-9.38,59.22,93,16.11,75,1587068922
cabo san lucas,MX,22.89,-109.91,77.27,47,8.05,40,1587068800
kautokeino,NO,69.01,23.04,21.6,90,7.74,100,1587069146
rock springs,US,41.59,-109.2,24.8,68,24.16,90,1587068950
salt,JO,32.04,35.73,56.88,67,4.7,20,1587068977
dikson,RU,73.51,80.55,-0.67,85,9.73,0,1587069007
bokoro,TD,12.38,17.06,81.95,11,10.51,0,1587069146
mayo,US,38.89,-76.51,51.82,29,11.41,1,1587069147
upata,VE,8.01,-62.4,93.31,25,1.9,40,1587069147
pacific grove,US,36.62,-121.92,58.96,76,6.93,90,1587068958
tukrah,LY,32.53,20.58,57.47,74,13.82,1,1587069147
carmen,MX,18.63,-91.83,87.8,70,10.29,40,1587068870
abja-paluoja,EE,58.13,25.35,37.0,87,8.99,24,1587069147
waingapu,ID,-9.66,120.26,77.9,80,2.53,22,1587069122
salisbury,GB,51.07,-1.8,54.12,58,8.05,0,1587069140
labuhan,ID,-6.88,112.21,78.94,83,2.26,85,1587069148
san quintin,MX,30.48,-115.95,67.95,52,12.24,0,1587069087
faanui,PF,-16.48,-151.75,82.99,69,10.22,27,1587069007
salym,RU,60.06,71.48,41.38,91,7.63,100,1587069017
williston,US,48.15,-103.62,38.8,27,10.29,1,1587069148
grand gaube,MU,-20.01,57.66,76.37,69,18.34,40,1587069082
champagnole,FR,46.74,5.91,56.25,71,4.7,19,1587069149
conde,BR,-7.26,-34.91,77.0,94,5.82,75,1587069121
port lincoln,AU,-34.73,135.87,59.34,69,9.28,17,1587069034
clyde river,CA,70.47,-68.59,8.6,84,18.34,75,1587069149
pochutla,MX,15.74,-96.47,91.09,49,9.17,20,1587069150
porgera,PG,-5.47,143.2,40.82,47,1.43,100,1587069150
jiuquan,CN,39.74,98.52,48.76,23,6.73,98,1587069150
richards bay,ZA,-28.78,32.04,69.96,76,4.43,5,1587069104
chokurdakh,RU,70.63,147.92,-9.17,91,8.12,98,1587069055
sechura,PE,-5.56,-80.82,79.3,60,14.16,65,1587069151
matagami,CA,49.75,-77.63,30.2,46,12.75,90,1587069151
dharmadam,IN,11.78,75.43,81.16,83,3.44,41,1587069151
sucre,BO,-19.03,-65.26,52.99,31,5.23,92,1587069151
verkhnevilyuysk,RU,63.45,120.32,6.51,94,4.72,16,1587069152
kosh-agach,RU,50.0,88.67,26.47,51,4.03,9,1587069152
baculin,PH,7.45,126.58,78.28,76,3.18,76,1587069152
rio grande,BR,-32.03,-52.1,73.56,53,13.87,20,1587068965
mabopane,ZA,-25.5,28.1,59.58,48,4.7,0,1587069152
half moon bay,US,37.46,-122.43,62.13,82,8.05,90,1587069153
christchurch,NZ,-43.53,172.63,47.21,93,1.12,96,1587069153
alofi,NU,-19.06,-169.92,79.97,72,14.38,100,1587069003
codrington,AU,-38.27,141.97,57.76,74,20.27,68,1587069153
cape town,ZA,-33.93,18.42,59.59,93,4.7,100,1587068548
saint-augustin,CA,51.23,-58.65,30.29,90,10.58,94,1587069153
kohima,IN,25.67,94.12,55.49,58,0.76,76,1587069154
chapais,CA,49.78,-74.85,30.2,39,11.41,75,1587069109
alihe,CN,50.57,123.72,38.53,55,2.8,0,1587069154
arys,KZ,42.43,68.8,44.6,87,4.47,0,1587069154
kaeo,NZ,-35.1,173.78,61.48,93,5.01,99,1587069001
san policarpo,PH,12.18,125.51,81.19,82,13.2,65,1587069155
salalah,OM,17.02,54.09,82.4,74,3.36,40,1587069025
toora-khem,RU,52.47,96.11,31.6,64,2.08,55,1587069062
narsaq,GL,60.92,-46.05,32.0,93,6.93,100,1587069073
biu,NG,10.61,12.19,83.57,10,14.03,0,1587069155
vila velha,BR,-20.33,-40.29,79.12,83,11.41,40,1587069031
east london,ZA,-33.02,27.91,64.27,64,6.89,0,1587068994
pangoa,PE,-12.12,-73.0,66.15,78,1.66,96,1587069156
eureka,US,40.8,-124.16,57.4,87,5.82,90,1587069133
oktyabrskiy,RU,54.48,53.47,36.66,76,10.65,62,1587069042
broken hill,AU,-31.95,141.43,51.8,71,9.17,85,1587069156
sawtell,AU,-30.38,153.1,62.38,72,8.05,4,1587069156
chuy,UY,-33.7,-53.46,65.39,82,10.87,8,1587069024
vrangel,RU,42.73,133.08,38.35,86,3.62,36,1587069066
wanning,CN,18.8,110.4,75.36,81,8.16,100,1587069157
elizabeth city,US,36.29,-76.25,62.08,25,14.99,1,1587069157
kardailovo,RU,51.54,53.9,38.44,79,9.48,48,1587069158
ossora,RU,59.24,163.07,23.16,95,4.63,23,1587069158
caravelas,BR,-17.71,-39.25,79.02,82,8.05,26,1587069031
provideniya,RU,64.38,-173.3,30.2,80,15.66,90,1587068994
mareeba,AU,-17.0,145.43,72.03,83,3.36,90,1587069158
znamenskoye,RU,57.13,73.83,41.7,84,5.12,29,1587069159
banda aceh,ID,5.56,95.32,79.39,83,5.53,100,1587069035
leningradskiy,RU,69.38,178.42,15.06,95,9.22,100,1587068943
avera,US,33.19,-82.53,70.11,28,5.82,1,1587069012
aberdeen,GB,57.14,-2.1,41.09,87,2.24,40,1587069159
oksfjord,NO,70.24,22.35,32.85,86,2.24,20,1587069159
bengkulu,ID,-3.8,102.27,77.67,83,6.67,100,1587068921
meulaboh,ID,4.14,96.13,77.34,86,2.33,100,1587069059
kodiak,US,57.79,-152.41,42.8,87,5.82,90,1587068882
havoysund,NO,71.0,24.66,35.53,86,14.99,40,1587068820
pierre,US,44.37,-100.35,44.82,24,9.17,20,1587068993
beloha,MG,-25.17,45.05,77.56,62,9.95,9,1587069115
bandarbeyla,SO,9.49,50.81,82.04,75,7.07,16,1587069089
kapuskasing,CA,49.42,-82.43,26.6,45,13.87,75,1587069111
toribio,CO,2.95,-76.27,87.8,48,13.87,40,1587069161
kaitangata,NZ,-46.28,169.85,46.35,83,1.99,100,1587069038
tabas,IR,33.6,56.92,66.2,39,2.24,8,1587068946
bathsheba,BB,13.22,-59.52,84.2,62,17.22,40,1587069161
fuerte olimpo,PY,-21.04,-57.87,75.96,38,4.65,0,1587069161
kaberamaido,UG,1.74,33.16,73.02,60,3.13,95,1587069162
shakiso,ET,5.75,38.92,60.66,58,1.5,44,1587069162
antalaha,MG,-14.9,50.28,76.42,82,11.12,40,1587069162
blackwater,AU,-23.58,148.88,66.69,81,3.2,0,1587069162
nedryhayliv,UA,50.83,33.88,43.03,70,13.73,11,1587069162
ranong,TH,9.97,98.63,80.26,78,3.38,100,1587069162
bay city,US,43.59,-83.89,40.95,35,18.34,75,1587069163
bethel,US,41.37,-73.41,45.45,24,14.99,75,1587068939
dunedin,NZ,-45.87,170.5,47.53,72,5.79,100,1587069085
bradford,GB,53.79,-1.75,49.28,76,11.41,26,1587068997
manta,EC,-0.95,-80.73,84.2,74,6.93,40,1587069027
praya,CV,14.92,-23.51,70.52,76,13.04,48,1587069163
ustka,PL,54.58,16.86,43.02,71,12.75,0,1587069164
almaznyy,RU,48.04,40.05,48.2,70,22.37,66,1587069164
severo-kurilsk,RU,50.68,156.12,30.85,95,12.84,100,1587069010
iqaluit,CA,63.75,-68.51,12.09,78,24.16,75,1587069164
viransehir,TR,37.24,39.76,55.22,55,3.53,27,1587069164
pereira barreto,BR,-20.64,-51.11,67.87,60,4.83,0,1587069163
huarmey,PE,-10.07,-78.15,79.68,58,9.89,56,1587069165
nchelenge,ZM,-9.35,28.73,72.61,65,3.15,100,1587069165
dudinka,RU,69.41,86.18,23.0,67,20.13,86,1587069165
kutum,SD,14.2,24.67,64.31,13,9.37,0,1587069075
kristiansund,NO,63.11,7.73,36.72,69,19.46,99,1587069166
longyearbyen,SJ,78.22,15.64,30.2,74,10.29,40,1587069037
baykit,RU,61.67,96.37,33.31,87,2.35,97,1587069125
maceio,BR,-9.67,-35.74,78.8,88,4.7,40,1587069099
viedma,AR,-40.81,-63.0,78.53,29,15.28,66,1587069062
iquitos,PE,-3.75,-73.25,42.8,100,8.05,40,1587069166
dingle,PH,11.0,122.67,79.54,79,6.15,56,1587069066
floro,NO,61.6,5.03,38.77,69,12.75,40,1587069167
touros,BR,-5.2,-35.46,80.6,83,5.82,75,1587069053
nichinan,JP,31.6,131.37,53.01,87,3.0,65,1587069167
norman wells,CA,65.28,-126.83,39.2,93,4.7,90,1587069045
charters towers,AU,-20.1,146.27,69.71,86,5.93,4,1587069032
ambon,ID,-3.7,128.18,82.81,77,7.56,77,1587069167
venado tuerto,AR,-33.75,-61.97,77.0,31,5.26,58,1587069003
namatanai,PG,-3.67,152.43,81.07,78,12.33,99,1587069090
sao borja,BR,-28.66,-56.0,65.57,43,4.85,0,1587069168
padang,ID,-0.95,100.35,77.09,80,2.95,99,1587069029
lagunas,PE,-5.23,-75.68,76.35,86,7.05,100,1587069168
oudtshoorn,ZA,-33.59,22.2,59.0,87,3.36,53,1587068996
laguna,US,38.42,-121.42,74.44,38,5.82,1,1587069070
brandon,US,27.94,-82.29,66.13,88,6.93,90,1587069024
thompson,CA,55.74,-97.86,24.8,53,9.17,75,1587068994
buala,SB,-8.14,159.59,79.16,84,6.91,100,1587069169
panzhihua,CN,26.59,101.71,64.42,32,1.12,0,1587069169
zapolyarnyy,RU,69.42,30.81,33.8,96,24.16,90,1587069170
le marin,MQ,14.47,-60.87,82.99,70,9.17,96,1587069170
bambanglipuro,ID,-7.95,110.28,78.96,84,6.13,99,1587069084
sebeta,ET,8.92,38.62,64.4,68,2.24,100,1587069170
mildura,AU,-34.2,142.15,48.58,81,5.82,1,1587069170
tutoia,BR,-2.76,-42.27,78.8,100,2.24,20,1587069171
gigmoto,PH,13.78,124.39,82.02,79,14.7,95,1587069120
gemena,CD,3.25,19.77,80.35,53,1.19,68,1587069171
faro,PT,37.02,-7.93,62.76,93,10.29,40,1587068940
ketchikan,US,55.34,-131.65,51.48,71,20.8,1,1587069125
ukiah,US,39.15,-123.21,67.62,31,6.93,1,1587069171
haapiti,PF,-17.57,-149.87,87.8,66,8.05,2,1587069171
martapura,ID,-3.42,114.85,77.0,100,3.36,57,1587069172
zhangjiakou,CN,40.81,114.88,43.18,54,18.32,71,1587069172
tateyama,JP,34.98,139.87,48.2,66,9.17,75,1587069172
ashtian,IR,34.52,50.0,49.35,30,1.92,100,1587069172
atikokan,CA,48.76,-91.62,35.26,63,12.39,100,1587069172
goderich,CA,43.75,-81.72,38.08,54,13.82,50,1587069067
sandwick,GB,60.0,-1.25,41.0,75,3.36,37,1587069172
gravdal,NO,68.12,13.5,37.35,80,25.41,99,1587069032
ribeira brava,PT,32.65,-17.07,59.4,63,5.82,20,1587069173
turkan,AZ,40.36,50.22,50.0,71,29.97,100,1587069173
nurota,UZ,40.56,65.69,51.8,87,6.93,0,1587069173
okhotsk,RU,59.38,143.3,18.19,87,7.9,18,1587069124
mar del plata,AR,-38.0,-57.56,63.91,72,8.05,0,1587068917
harindanga,IN,22.04,88.32,84.2,83,10.29,40,1587069173
qui nhon,VN,13.77,109.23,75.81,82,1.01,93,1587069174
nioaque,BR,-21.14,-55.83,70.52,52,3.94,0,1587069174
tonosho,JP,34.48,134.18,45.52,87,5.82,20,1587069174
samana,DO,19.21,-69.34,84.2,79,6.93,40,1587069174
yurino,RU,56.29,46.3,39.2,84,15.66,90,1587069174
luang prabang,LA,19.89,102.13,72.88,68,1.99,91,1587069174
smithers,CA,54.78,-127.17,57.2,38,4.7,20,1587069175
bilibino,RU,68.05,166.44,9.99,86,1.5,74,1587069107
pangnirtung,CA,66.15,-65.71,21.2,67,9.17,75,1587069067
druzhba,UA,52.04,33.95,41.83,74,18.21,78,1587069175
lavrentiya,RU,65.58,-171.0,27.48,97,12.1,100,1587069175
macon,US,39.87,-88.97,43.02,56,3.36,75,1587069175
auki,SB,-8.77,160.7,78.17,85,5.41,100,1587069008
airai,TL,-8.93,125.41,61.32,67,3.02,11,1587068997
hami,CN,42.8,93.45,63.16,23,6.49,95,1587069015
launceston,AU,-41.45,147.17,49.78,66,12.75,52,1587069069
tabou,CI,4.42,-7.35,80.73,87,5.93,89,1587069087
tecoanapa,MX,16.52,-98.75,88.75,45,10.51,3,1587069176
fairview,US,40.81,-74.0,46.81,20,10.29,90,1587069177
twentynine palms,US,34.14,-116.05,77.94,14,3.36,1,1587069177
kemin,KG,42.78,75.69,46.06,38,2.84,40,1587069177
katsuura,JP,35.13,140.3,48.11,66,9.17,75,1587069026
gizo,SB,-8.1,156.84,80.91,81,12.55,100,1587068940
san cristobal,VE,7.77,-72.22,89.6,49,13.87,40,1587069123
muscat,OM,23.61,58.59,77.22,74,6.11,1,1587069178
sept-iles,CA,50.2,-66.38,33.44,87,20.8,75,1587068924
bloomfield,US,40.81,-74.19,46.71,21,18.34,40,1587069178
cairns,AU,-16.92,145.77,74.52,83,3.36,90,1587068722
kavieng,PG,-2.57,150.8,78.91,89,19.51,100,1587069032
valle hermoso,MX,25.67,-97.83,73.06,64,13.87,90,1587069178
uaua,BR,-9.84,-39.48,78.82,59,7.63,33,1587069179
torres,BR,-29.34,-49.73,68.16,62,10.13,0,1587069179
bata,GQ,1.86,9.77,80.6,100,2.24,40,1587069179
dagda,LV,56.1,27.54,35.6,80,12.33,86,1587069179
bengbu,CN,32.94,117.36,61.79,57,3.44,98,1587069179
omsukchan,RU,62.53,155.8,13.62,89,5.48,100,1587069179
prado,BR,-17.34,-39.22,78.62,83,7.87,14,1587069180
orangeburg,US,33.49,-80.86,69.12,22,3.36,1,1587069180
tiksi,RU,71.69,128.87,-8.55,90,6.6,100,1587069040
kingisepp,RU,59.37,28.61,35.6,89,9.93,67,1587069126
fort nelson,CA,58.81,-122.7,60.8,29,11.41,75,1587069021
leo,BF,11.1,-2.1,92.91,23,2.21,23,1587069181
esna,EG,25.29,32.55,78.8,26,3.36,21,1587069182
mehran,IR,33.12,46.16,51.8,50,4.7,94,1587069183
kataysk,RU,56.29,62.58,50.9,49,17.09,100,1587069183
sorland,NO,67.67,12.69,37.2,78,28.48,100,1587069183
talnakh,RU,69.49,88.4,23.0,67,20.13,19,1587068999
torbay,CA,47.67,-52.73,40.53,55,19.46,75,1587068995
nobres,BR,-14.72,-56.33,77.54,75,6.62,5,1587069184
cockburn town,TC,21.46,-71.14,79.12,80,15.19,11,1587069184
douentza,ML,15.0,-2.95,87.17,11,6.35,21,1587069184
qeshm,IR,26.96,56.27,68.0,88,4.7,58,1587069003
haines junction,CA,60.75,-137.51,43.18,67,3.96,100,1587069042
jumla,NP,29.27,82.18,48.49,26,3.06,79,1587069185
nome,US,64.5,-165.41,33.91,100,14.99,90,1587069012
guiglo,CI,6.55,-7.5,79.38,74,3.91,74,1587069185
vanimo,PG,-2.67,141.3,79.25,82,4.9,36,1587069061
tadine,NC,-21.55,167.88,75.99,68,12.48,15,1587069185
poum,NC,-20.23,164.02,77.95,80,12.17,10,1587069186
belmonte,BR,-15.86,-38.88,80.6,78,6.93,20,1587069044
fonte boa,BR,-2.5,-66.27,81.88,85,2.37,98,1587069186
morondava,MG,-20.28,44.28,78.75,78,8.86,0,1587069033
manaus,BR,-3.1,-60.02,77.05,83,5.82,75,1587069186
saldanha,ZA,-33.01,17.94,62.6,82,6.93,100,1587069041
gwadar,PK,25.12,62.33,80.73,63,9.89,62,1587069187
pisco,PE,-13.7,-76.22,76.05,30,18.34,0,1587069006
ostrovnoy,RU,68.05,39.51,33.85,95,18.32,100,1587069005
eydhafushi,MV,5.1,73.07,84.58,74,9.4,30,1587069187
lakes entrance,AU,-37.88,147.98,42.01,93,21.5,1,1587069188
whitehorse,CA,60.72,-135.05,46.2,65,6.93,75,1587069124
springbok,ZA,-29.66,17.89,52.2,40,5.57,4,1587069188
omboue,GA,-1.57,9.26,78.17,92,9.44,100,1587069035
kaabong,UG,3.48,34.15,68.36,54,4.72,97,1587069189
lydenburg,ZA,-25.1,30.46,55.54,86,3.74,19,1587069189
tezu,IN,27.92,96.17,69.17,70,1.72,99,1587069083
natal,BR,-5.79,-35.21,81.5,78,10.29,20,1587069060
lata,PT,40.16,-8.33,58.48,87,10.29,20,1587069054
oristano,IT,39.9,8.6,62.6,93,8.05,75,1587069190
roma,US,43.21,-75.46,37.47,51,12.75,75,1587069125
orotukan,RU,62.27,151.7,3.9,86,8.5,100,1587069190
sydney,AU,-33.87,151.21,62.22,93,1.12,75,1587068980
ponta delgada,PT,37.73,-25.67,60.8,72,8.05,20,1587069056
palmer,US,42.16,-72.33,42.89,30,18.34,40,1587069144
ulaanbaatar,MN,47.91,106.88,17.6,67,2.24,0,1587069191
juazeiro,BR,-9.41,-40.5,89.6,49,5.82,20,1587069191
praia da vitoria,PT,38.73,-27.07,59.0,82,13.62,75,1587069191
vengerovo,RU,55.68,76.75,42.57,80,5.59,9,1587069191
deep river,CA,46.1,-77.5,38.39,27,9.17,20,1587069192
vytegra,RU,61.01,36.45,32.67,95,14.34,100,1587069192
bangassou,CF,4.74,22.82,77.92,40,0.6,52,1587069192
guerrero negro,MX,27.98,-114.06,76.08,26,13.06,100,1587069028
lubango,AO,-14.92,13.49,62.19,46,0.51,13,1587069193
dom pedrito,BR,-30.98,-54.67,65.52,65,6.42,81,1587069193
cairo,EG,30.06,31.25,62.29,59,11.41,40,1587068845
patti,IN,31.28,74.86,77.92,54,5.82,40,1587069193
yarensk,RU,62.17,49.09,31.24,95,11.03,96,1587069194
at-bashi,KG,41.17,75.81,39.09,31,1.21,69,1587069194
bouca,CF,6.51,18.27,81.77,44,2.48,64,1587069194
blagoyevo,RU,63.37,47.92,33.01,88,14.0,100,1587069194
moerai,PF,-22.43,-151.33,78.48,61,10.33,100,1587069194
abay,KZ,49.63,72.85,33.8,46,6.71,0,1587069195
huntsville,US,34.73,-86.59,65.66,39,2.04,1,1587069195
kundiawa,PG,-6.02,144.97,62.11,51,0.81,84,1587069195
trinidad,BO,-14.83,-64.9,82.4,51,6.93,75,1587069196
taoudenni,ML,22.68,-3.98,94.66,19,7.85,64,1587069196
praia,CV,14.92,-23.51,70.52,76,13.04,48,1587069196
bukoba,TZ,-1.33,31.81,73.4,88,4.59,20,1587069196
shirvan,AZ,39.95,48.9,54.75,59,2.73,100,1587069196
olbia,IT,40.92,9.49,55.4,93,2.24,6,1587069197
tarakan,ID,3.3,117.63,78.57,84,5.21,87,1587069197
grants,US,35.15,-107.85,64.4,16,17.22,1,1587069197
tambacounda,SN,13.75,-13.76,89.47,41,2.35,68,1587069197
conceicao do mato dentro,BR,-19.04,-43.42,69.6,74,2.64,34,1587069197
simao,CN,22.79,100.97,63.86,37,2.15,33,1587069197
saint-marc-des-carrieres,CA,46.68,-72.05,36.7,43,12.75,75,1587069198
olafsvik,IS,64.89,-23.71,40.89,91,17.07,100,1587069111
waynesville,US,35.49,-82.99,58.32,26,12.75,1,1587069164
kalmunai,LK,7.42,81.82,81.57,75,2.93,52,1587069080
sidi ali,DZ,36.1,0.42,62.22,76,2.15,73,1587069199
puerto cabello,VE,10.47,-68.01,78.98,77,12.55,18,1587069199
kiama,AU,-34.68,150.87,59.59,100,4.7,15,1587069035
nuuk,GL,64.18,-51.72,26.29,100,38.03,90,1587069169
kamina,CD,-8.74,24.99,67.14,67,2.01,100,1587069200
zhigansk,RU,66.77,123.37,-7.38,87,15.57,5,1587069106
varhaug,NO,58.61,5.65,39.25,65,16.11,86,1587069200
quimper,FR,48.0,-4.1,55.67,71,3.36,72,1587069200
gimli,CA,50.63,-96.99,33.91,49,5.01,99,1587068942
mount isa,AU,-20.73,139.5,60.8,67,6.89,10,1587069085
neyshabur,IR,36.21,58.8,53.65,36,1.25,0,1587069201
irece,BR,-11.3,-41.86,74.39,65,7.94,27,1587069201
chatham,GB,51.38,0.53,52.97,87,8.05,0,1587069010
tual,ID,-5.67,132.75,83.39,75,4.81,94,1587068994
pitimbu,BR,-7.47,-34.81,77.0,94,5.82,75,1587069202
hopelchen,MX,19.77,-89.85,89.6,59,11.41,20,1587069202
morro bay,US,35.37,-120.85,62.91,82,6.93,90,1587069202
sawakin,SD,19.11,37.33,74.53,53,3.53,0,1587069109
klyuchi,RU,52.27,79.17,47.35,62,3.87,0,1587069202
khor,RU,47.89,134.95,38.41,67,4.97,0,1587069203
buta,CD,2.79,24.73,77.83,59,1.28,85,1587069203
kirovskiy,RU,45.09,133.51,39.16,69,5.19,94,1587069203
luderitz,NA,-26.65,15.16,59.0,82,16.11,82,1587069203
saint-pierre,RE,-21.34,55.48,69.13,61,18.34,27,1587069203
itarema,BR,-2.92,-39.92,79.38,88,7.76,48,1587069001
geraldton,AU,-28.77,114.6,62.6,77,5.82,95,1587069066
bodaybo,RU,57.85,114.19,36.46,72,1.92,93,1587069204
rapid valley,US,44.06,-103.15,36.72,32,11.41,40,1587069204
moquegua,PE,-17.2,-70.94,73.38,23,8.61,0,1587069205
makakilo city,US,21.35,-158.09,78.71,61,9.17,20,1587069205
yerbogachen,RU,61.28,108.01,21.85,91,9.4,46,1587069049
janesville,US,42.68,-89.02,43.93,22,17.22,20,1587069091
amberley,US,39.2,-84.43,49.44,37,12.75,90,1587069205
shebunino,RU,46.43,141.86,38.37,81,7.85,23,1587069206
poltavka,RU,54.37,71.76,47.68,56,8.95,99,1587069206
kuah,MY,6.33,99.84,81.05,88,2.24,20,1587069132
lakatoro,VU,-16.1,167.42,80.6,83,4.7,75,1587069207
along,IN,28.17,94.77,67.03,65,2.48,99,1587069207
vangaindrano,MG,-23.35,47.6,71.85,86,2.98,53,1587069207
mosquera,CO,4.71,-74.23,68.0,52,12.75,40,1587069207
grindavik,IS,63.84,-22.43,41.86,100,18.34,90,1587068945
oum hadjer,TD,13.3,19.7,82.92,10,10.92,0,1587069208
maniitsoq,GL,65.42,-52.9,29.82,93,28.01,100,1587069068
krutinka,RU,56.01,71.51,44.65,69,10.47,100,1587069208
ambulu,ID,-8.35,113.61,79.21,80,2.95,100,1587069208
boyabat,TR,41.47,34.77,42.33,64,1.79,0,1587069209
marzuq,YE,14.4,46.47,74.71,50,5.95,93,1587069209
plettenberg bay,ZA,-34.05,23.37,61.57,70,5.61,41,1587069022
krasnoselkup,RU,65.7,82.47,30.92,99,5.06,100,1587069049
neijiang,CN,29.58,105.06,71.17,59,4.12,99,1587069209
collie,AU,-33.37,116.15,52.68,56,6.08,34,1587069210
katherine,AU,-14.47,132.27,71.6,83,3.6,94,1587069112
tuatapere,NZ,-46.13,167.68,44.01,95,5.01,100,1587069090
salamiyah,SY,35.01,37.05,62.13,52,13.22,100,1587069210
sayat,TM,38.78,63.88,57.2,71,4.7,0,1587069211
itoman,JP,26.12,127.67,60.73,72,4.7,20,1587069211
dzhebariki-khaya,RU,62.22,135.8,-4.31,85,1.63,0,1587069211
los llanos de aridane,ES,28.66,-17.92,68.0,72,8.05,75,1587069211
yumen,CN,40.28,97.2,50.97,21,18.59,100,1587069081
nantucket,US,41.28,-70.1,43.11,66,14.99,90,1587068976
vostok,RU,46.49,135.88,30.67,68,3.06,0,1587069090
redcliffe,AU,-27.23,153.1,65.1,88,11.41,20,1587069212
sinnamary,GF,5.38,-52.95,80.64,81,11.65,99,1587069010
uige,AO,-7.61,15.06,69.53,74,0.63,100,1587069212
ayan,RU,56.45,138.17,27.48,97,10.13,100,1587069049
sola,VU,-13.88,167.55,82.65,77,16.64,96,1587068943
batemans bay,AU,-35.72,150.18,52.65,89,1.72,56,1587069213
dillon,US,34.42,-79.37,68.49,36,8.05,1,1587069096
aksarka,RU,66.56,67.8,27.45,98,13.76,100,1587069213
anchorage,US,61.22,-149.9,42.1,87,5.82,90,1587069093
chiredzi,ZW,-21.05,31.67,72.32,77,6.53,6,1587069105
qaqortoq,GL,60.72,-46.03,32.0,95,6.93,100,1587069064
sioux falls,US,43.55,-96.7,39.67,44,8.05,90,1587069214
khammam,IN,17.25,80.15,79.12,64,6.29,0,1587069214
serebryansk,KZ,49.69,83.29,32.0,65,1.9,20,1587069214
mackay,AU,-21.15,149.2,70.57,94,5.82,75,1587069068
naze,JP,28.37,129.48,55.4,93,5.82,0,1587069105
humboldt,US,40.67,-123.92,57.54,87,10.29,20,1587069215
sulina,RO,45.16,29.65,52.59,63,14.09,78,1587069215
pervomayskoye,RU,43.92,46.71,42.01,66,6.4,34,1587069215
usinsk,RU,65.99,57.53,31.71,95,9.35,100,1587069216
kamenka,RU,51.32,42.77,44.47,86,22.95,100,1587069184
tilichiki,RU,60.47,166.1,12.6,93,8.75,4,1587069099
bac lieu,VN,9.29,105.72,82.09,79,12.88,94,1587069216
adrar,MR,20.5,-10.07,89.82,20,4.56,27,1587069031
kalabo,ZM,-14.97,22.68,71.31,50,4.23,5,1587069084
gainesville,US,29.65,-82.32,72.46,46,16.11,20,1587069067
berezovyy,RU,51.67,135.7,37.22,69,4.38,0,1587069176
vohibinany,MG,-17.35,49.03,70.32,83,4.76,82,1587069217
novosergiyevka,RU,52.09,53.65,37.36,79,10.04,23,1587069217
kananga,CD,-5.9,22.42,73.02,75,3.89,100,1587069217
bastrop,US,32.76,-91.87,72.01,43,5.82,1,1587069218
ancud,CL,-41.87,-73.82,59.0,100,23.04,90,1587069056
lorengau,PG,-2.02,147.27,83.3,69,2.17,99,1587069011
harper,LR,4.38,-7.72,81.46,85,5.91,91,1587069039
porto recanati,IT,43.44,13.66,51.37,61,2.24,100,1587069218
gorontalo,ID,0.54,123.06,74.77,86,3.22,34,1587069218
kavaratti,IN,10.57,72.64,84.15,68,4.18,89,1587069082
vila real de santo antonio,PT,37.2,-7.42,62.82,93,11.41,40,1587069219
bubaque,GW,11.28,-15.83,79.11,69,16.08,29,1587069057
manoel urbano,BR,-8.84,-69.26,79.02,72,2.57,100,1587069219
vestmanna,FO,62.16,-7.17,41.0,86,6.93,77,1587069070
broome,US,42.25,-75.83,36.97,43,14.99,90,1587068804
ispravnaya,RU,44.07,41.61,43.0,6,8.01,27,1587069219
dwarka,IN,22.24,68.97,80.37,76,11.25,62,1587069219
honningsvag,NO,70.98,25.97,35.6,80,14.99,75,1587069106
coria,ES,39.99,-6.54,55.99,87,1.01,45,1587069037
bow island,CA,49.87,-111.37,44.91,36,10.29,75,1587069036
gushikawa,JP,26.35,127.87,59.68,93,4.7,1,1587069220
plant city,US,28.02,-82.11,65.55,100,6.93,90,1587068979
ushumun,RU,52.78,126.53,35.44,72,3.22,0,1587069221
mongagua,BR,-24.09,-46.62,71.53,82,11.41,75,1587069221
darhan,MN,49.49,105.92,42.58,43,1.12,2,1587069019
manama,BH,26.22,50.58,73.71,69,2.24,0,1587069008
stornoway,GB,58.21,-6.39,45.81,75,14.99,0,1587069221
nhulunbuy,AU,-12.23,136.77,75.2,94,1.12,65,1587069222
kingston,JM,18.0,-76.79,85.57,70,17.22,20,1587069208
limpapa,PH,7.12,121.91,78.22,75,3.74,18,1587069222
kangaatsiaq,GL,68.31,-53.46,32.02,93,1.25,100,1587069222
tyrma,RU,50.08,132.17,36.09,66,1.01,0,1587069223
piacabucu,BR,-10.41,-36.43,80.1,83,9.53,15,1587069223
luoyang,CN,34.68,112.45,55.85,35,1.43,43,1587069223
hanstholm,DK,57.12,8.62,42.12,86,12.64,4,1587069224
sao joao da barra,BR,-21.64,-41.05,77.0,78,9.17,75,1587069060
mocuba,MZ,-16.84,36.99,72.79,89,3.44,0,1587069056
mattru,SL,7.62,-11.83,81.03,78,5.12,62,1587069122
kailua,US,21.4,-157.74,79.09,54,11.41,40,1587069091
vitim,RU,59.45,112.56,22.6,92,10.4,74,1587069225
novikovo,RU,51.15,37.89,42.33,75,15.82,21,1587069225
hermiston,US,45.84,-119.29,60.19,16,12.75,1,1587069225
farmington,US,36.73,-108.22,62.28,16,20.8,40,1587069225
murmashi,RU,68.82,32.81,33.8,86,8.95,75,1587069226
rognan,NO,67.1,15.39,35.82,69,24.16,40,1587069226
doctor arroyo,MX,23.67,-100.18,77.67,20,10.33,91,1587069226
hella,NO,67.2,14.43,35.94,69,24.16,40,1587069227
zhangye,CN,38.93,100.45,50.41,21,4.76,100,1587069227
